{"generated_at":"2026-06-21T22:04:07.665541+00:00","count":8,"sensors":[{"name":"EZTESP32C306C66","mac":"A8:46:74:40:6C:66","geo3":"ezt","lat":43.2614,"lon":-3.0048,"pm25":6.0,"pm10":6.0,"no2":0.0,"o3":0.0,"db":69.6,"last_time":"2026-06-19T22:04:07.658894Z"},{"name":"EZTTTGOT770076","mac":"E8:31:CD:C7:00:76","geo3":"ezt","lat":43.2291,"lon":-2.8764,"pm25":5.0,"pm10":6.0,"no2":0.0,"o3":0.0,"db":null,"last_time":"2026-06-19T22:04:07.658894Z"},{"name":"EZTTTGOT7D5CFE","mac":"34:86:5D:AD:5C:FE","geo3":"ezt","lat":43.2195,"lon":-2.8846,"pm25":5.0,"pm10":5.0,"no2":0.0,"o3":0.0,"db":null,"last_time":"2026-06-19T22:04:07.658894Z"},{"name":"EZTTTGOT7ECCA2","mac":"FC:B4:67:DE:CC:A2","geo3":"ezt","lat":43.2394,"lon":-2.8839,"pm25":6.0,"pm10":6.0,"no2":0.0,"o3":0.0,"db":null,"last_time":"2026-06-19T22:04:07.658894Z"},{"name":"EZTXIAOS355532","mac":"CC:BA:97:15:55:32","geo3":"ezt","lat":43.2429,"lon":-2.875,"pm25":0.0,"pm10":0.0,"no2":0.0,"o3":0.0,"db":73.83,"last_time":"2026-06-19T22:04:07.658894Z"},{"name":"EZTXIAOS361222","mac":"CC:BA:97:16:12:22","geo3":"ezt","lat":43.2614,"lon":-3.0048,"pm25":5.0,"pm10":5.0,"no2":188.2,"o3":176.7,"db":65.16,"last_time":"2026-06-19T22:04:07.658894Z"},{"name":"U33TTGOT748316","mac":"24:6F:28:44:83:16","geo3":"u33","lat":52.5373,"lon":13.437,"pm25":70.0,"pm10":71.0,"no2":0.0,"o3":0.0,"db":null,"last_time":"2026-06-19T22:04:07.658894Z"},{"name":"U33TTGOTDA585E","mac":"24:6F:28:7A:58:5E","geo3":"u33","lat":52.5373,"lon":13.437,"pm25":2.0,"pm10":2.0,"no2":0.0,"o3":0.0,"db":null,"last_time":"2026-06-19T22:04:07.658894Z"}]}