{"generated_at":"2026-07-21T21:22:18.775733+00:00","count":11,"sensors":[{"name":"EZTESP32C306C66","mac":"A8:46:74:40:6C:66","geo3":"ezt","lat":43.2841,"lon":-2.9945,"pm25":0.0,"pm10":0.0,"no2":0.0,"o3":0.0,"nh3":0.0,"co":0.0,"db":64.95,"flags":{},"last_time":"2026-07-21T20:22:30.907013Z"},{"name":"EZTESP32C3071A6","mac":"A8:46:74:40:71:A6","geo3":"ezt","lat":43.2896,"lon":-2.8901,"pm25":0.0,"pm10":0.0,"no2":0.0,"o3":0.0,"nh3":0.0,"co":0.0,"db":56.79,"flags":{},"last_time":"2026-07-21T20:22:18.790178Z"},{"name":"EZTTTGOT770076","mac":"E8:31:CD:C7:00:76","geo3":"ezt","lat":43.2291,"lon":-2.8764,"pm25":4.0,"pm10":4.0,"no2":0.0,"o3":0.0,"nh3":0.0,"co":0.0,"db":null,"flags":{},"last_time":"2026-07-21T20:22:27.294220Z"},{"name":"EZTTTGOT7D5CFE","mac":"34:86:5D:AD:5C:FE","geo3":"ezt","lat":43.2195,"lon":-2.8846,"pm25":4.0,"pm10":5.0,"no2":0.0,"o3":0.0,"nh3":0.0,"co":0.0,"db":null,"flags":{},"last_time":"2026-07-21T20:19:47.621435Z"},{"name":"EZTTTGOT7ECCA2","mac":"FC:B4:67:DE:CC:A2","geo3":"ezt","lat":43.2394,"lon":-2.8839,"pm25":4.0,"pm10":4.0,"no2":0.0,"o3":0.0,"nh3":0.0,"co":0.0,"db":null,"flags":{},"last_time":"2026-07-21T20:19:53.999468Z"},{"name":"EZTTTGOTD0CC4E","mac":"08:B6:1F:90:CC:4E","geo3":"ezt","lat":43.2635,"lon":-3.0,"pm25":0.0,"pm10":0.0,"no2":169.4,"o3":0.0,"nh3":0.0,"co":0.0,"db":null,"flags":{},"last_time":"2026-07-21T20:22:53.457452Z"},{"name":"EZTXIAOS354B02","mac":"CC:BA:97:15:4B:02","geo3":"ezt","lat":43.2841,"lon":-2.9945,"pm25":0.0,"pm10":0.0,"no2":0.0,"o3":0.0,"nh3":0.0,"co":0.0,"db":64.55,"flags":{},"last_time":"2026-07-21T20:22:50.374073Z"},{"name":"EZTXIAOS355532","mac":"CC:BA:97:15:55:32","geo3":"ezt","lat":43.2429,"lon":-2.875,"pm25":0.0,"pm10":0.0,"no2":0.0,"o3":0.0,"nh3":0.0,"co":0.0,"db":76.66,"flags":{},"last_time":"2026-07-21T20:22:38.772871Z"},{"name":"EZTXIAOS361222","mac":"CC:BA:97:16:12:22","geo3":"ezt","lat":43.2841,"lon":-2.9945,"pm25":0.0,"pm10":0.0,"no2":18.8,"o3":78.5,"nh3":1581.1,"co":0.0,"db":0.0,"flags":{"nh3":true},"last_time":"2026-07-21T20:22:47.512728Z"},{"name":"U33TTGOT7D7F66","mac":"34:85:18:8D:7F:66","geo3":"u33","lat":52.5284,"lon":13.4308,"pm25":0.0,"pm10":0.0,"no2":0.0,"o3":0.0,"nh3":0.0,"co":0.0,"db":0.0,"flags":{},"last_time":"2026-07-21T20:22:38.468336Z"},{"name":"U33TTGOTDA585E","mac":"24:6F:28:7A:58:5E","geo3":"u33","lat":52.5373,"lon":13.437,"pm25":0.0,"pm10":0.0,"no2":0.0,"o3":0.0,"nh3":0.0,"co":0.0,"db":null,"flags":{},"last_time":"2026-07-21T20:22:13.677090Z"}]}