{"generated_at":"2026-06-16T17:33:28.213896+00:00","count":8,"sensors":[{"name":"EZTTTGOT770076","mac":"E8:31:CD:C7:00:76","geo3":"ezt","lat":43.2291,"lon":-2.8764,"pm25":5.0,"pm10":5.0,"last_time":"2026-06-14T17:33:28.205592Z"},{"name":"EZTTTGOT7D5CFE","mac":"34:86:5D:AD:5C:FE","geo3":"ezt","lat":43.2195,"lon":-2.8846,"pm25":8.0,"pm10":8.0,"last_time":"2026-06-14T17:33:28.205592Z"},{"name":"EZTTTGOT7ECCA2","mac":"FC:B4:67:DE:CC:A2","geo3":"ezt","lat":43.2394,"lon":-2.8839,"pm25":5.0,"pm10":6.0,"last_time":"2026-06-14T17:33:28.205592Z"},{"name":"EZTTTGOTD08C9E","mac":"D4:D4:DA:E0:8C:9E","geo3":"ezt","lat":43.2374,"lon":-2.8709,"pm25":1.0,"pm10":1.0,"last_time":"2026-06-14T17:33:28.205592Z"},{"name":"EZTTTGOTD0BBBA","mac":"08:B6:1F:90:BB:BA","geo3":"ezt","lat":43.2614,"lon":-3.0048,"pm25":0.0,"pm10":741.0,"last_time":"2026-06-14T17:33:28.205592Z"},{"name":"EZTXIAOS355532","mac":"CC:BA:97:15:55:32","geo3":"ezt","lat":43.2429,"lon":-2.875,"pm25":0.0,"pm10":0.0,"last_time":"2026-06-14T17:33:28.205592Z"},{"name":"EZTXIAOS361222","mac":"CC:BA:97:16:12:22","geo3":"ezt","lat":43.2614,"lon":-3.0048,"pm25":5.0,"pm10":5.0,"last_time":"2026-06-14T17:33:28.205592Z"},{"name":"U33TTGOTDA585E","mac":"24:6F:28:7A:58:5E","geo3":"u33","lat":52.5373,"lon":13.437,"pm25":0.0,"pm10":0.0,"last_time":"2026-06-14T17:33:28.205592Z"}]}