{"generated_at":"2026-07-08T11:52:17.516993+00:00","count":9,"sensors":[{"name":"EZTTTGOT770076","mac":"E8:31:CD:C7:00:76","geo3":"ezt","lat":43.2291,"lon":-2.8764,"pm25":19.0,"pm10":19.0,"no2":0.0,"o3":0.0,"nh3":0.0,"co":0.0,"db":null,"flags":{},"last_time":"2026-07-08T10:59:21.683014Z"},{"name":"EZTTTGOT7D5CFE","mac":"34:86:5D:AD:5C:FE","geo3":"ezt","lat":43.2195,"lon":-2.8846,"pm25":18.0,"pm10":18.0,"no2":0.0,"o3":0.0,"nh3":0.0,"co":0.0,"db":null,"flags":{},"last_time":"2026-07-08T10:57:23.430920Z"},{"name":"EZTTTGOT7ECCA2","mac":"FC:B4:67:DE:CC:A2","geo3":"ezt","lat":43.2394,"lon":-2.8839,"pm25":24.0,"pm10":24.0,"no2":0.0,"o3":0.0,"nh3":0.0,"co":0.0,"db":null,"flags":{},"last_time":"2026-07-08T10:58:19.000471Z"},{"name":"EZTTTGOTD08C9E","mac":"D4:D4:DA:E0:8C:9E","geo3":"ezt","lat":43.2374,"lon":-2.8709,"pm25":1.0,"pm10":1.0,"no2":0.0,"o3":0.0,"nh3":0.0,"co":0.0,"db":null,"flags":{},"last_time":"2026-07-08T10:59:11.554326Z"},{"name":"EZTTTGOTD0CC4E","mac":"08:B6:1F:90:CC:4E","geo3":"ezt","lat":43.2635,"lon":-3.0,"pm25":0.0,"pm10":0.0,"no2":169.4,"o3":0.0,"nh3":0.0,"co":0.0,"db":null,"flags":{},"last_time":"2026-07-08T10:59:20.332163Z"},{"name":"EZTXIAOS354B02","mac":"CC:BA:97:15:4B:02","geo3":"ezt","lat":43.2841,"lon":-2.9945,"pm25":0.0,"pm10":0.0,"no2":0.0,"o3":0.0,"nh3":0.0,"co":0.0,"db":74.97,"flags":{},"last_time":"2026-07-08T10:59:23.801589Z"},{"name":"EZTXIAOS355532","mac":"CC:BA:97:15:55:32","geo3":"ezt","lat":43.2429,"lon":-2.875,"pm25":0.0,"pm10":0.0,"no2":0.0,"o3":0.0,"nh3":0.0,"co":0.0,"db":82.19,"flags":{},"last_time":"2026-07-08T10:59:16.918401Z"},{"name":"EZTXIAOS361222","mac":"CC:BA:97:16:12:22","geo3":"ezt","lat":43.2841,"lon":-2.9945,"pm25":0.0,"pm10":0.0,"no2":0.0,"o3":58.9,"nh3":1629.9,"co":0.0,"db":0.0,"flags":{"nh3":true},"last_time":"2026-07-08T10:59:24.437634Z"},{"name":"U33TTGOTDA585E","mac":"24:6F:28:7A:58:5E","geo3":"u33","lat":52.5373,"lon":13.437,"pm25":0.0,"pm10":0.0,"no2":0.0,"o3":0.0,"nh3":0.0,"co":0.0,"db":null,"flags":{},"last_time":"2026-07-08T10:57:54.329496Z"}]}