{"generated_at":"2026-06-21T10:29:06.666405+00:00","count":6,"sensors":[{"name":"EZTTTGOT770076","mac":"E8:31:CD:C7:00:76","geo3":"ezt","lat":43.2291,"lon":-2.8764,"pm25":6.0,"pm10":7.0,"no2":0.0,"o3":0.0,"db":null,"last_time":"2026-06-19T10:29:06.657557Z"},{"name":"EZTTTGOT7D5CFE","mac":"34:86:5D:AD:5C:FE","geo3":"ezt","lat":43.2195,"lon":-2.8846,"pm25":5.0,"pm10":5.0,"no2":0.0,"o3":0.0,"db":null,"last_time":"2026-06-19T10:29:06.657557Z"},{"name":"EZTTTGOT7ECCA2","mac":"FC:B4:67:DE:CC:A2","geo3":"ezt","lat":43.2394,"lon":-2.8839,"pm25":5.0,"pm10":5.0,"no2":0.0,"o3":0.0,"db":null,"last_time":"2026-06-19T10:29:06.657557Z"},{"name":"EZTXIAOS355532","mac":"CC:BA:97:15:55:32","geo3":"ezt","lat":43.2429,"lon":-2.875,"pm25":0.0,"pm10":0.0,"no2":0.0,"o3":0.0,"db":73.14,"last_time":"2026-06-19T10:29:06.657557Z"},{"name":"EZTXIAOS361222","mac":"CC:BA:97:16:12:22","geo3":"ezt","lat":43.2614,"lon":-3.0048,"pm25":11.0,"pm10":11.0,"no2":188.2,"o3":58.9,"db":66.5,"last_time":"2026-06-19T10:29:06.657557Z"},{"name":"U33TTGOTDA585E","mac":"24:6F:28:7A:58:5E","geo3":"u33","lat":52.5373,"lon":13.437,"pm25":51.0,"pm10":57.0,"no2":0.0,"o3":0.0,"db":null,"last_time":"2026-06-19T10:29:06.657557Z"}]}