{"generated_at":"2026-07-11T22:22:17.785086+00:00","count":9,"sensors":[{"name":"EZTTTGOT770076","mac":"E8:31:CD:C7:00:76","geo3":"ezt","lat":43.2291,"lon":-2.8764,"pm25":9.0,"pm10":9.0,"no2":0.0,"o3":0.0,"nh3":0.0,"co":0.0,"db":null,"flags":{},"last_time":"2026-07-11T22:18:46.128384Z"},{"name":"EZTTTGOT7D5CFE","mac":"34:86:5D:AD:5C:FE","geo3":"ezt","lat":43.2195,"lon":-2.8846,"pm25":9.0,"pm10":9.0,"no2":0.0,"o3":0.0,"nh3":0.0,"co":0.0,"db":null,"flags":{},"last_time":"2026-07-11T22:17:03.649846Z"},{"name":"EZTTTGOT7ECCA2","mac":"FC:B4:67:DE:CC:A2","geo3":"ezt","lat":43.2394,"lon":-2.8839,"pm25":13.0,"pm10":13.0,"no2":0.0,"o3":0.0,"nh3":0.0,"co":0.0,"db":null,"flags":{},"last_time":"2026-07-11T22:16:36.460103Z"},{"name":"EZTTTGOTD08C9E","mac":"D4:D4:DA:E0:8C:9E","geo3":"ezt","lat":43.2374,"lon":-2.8709,"pm25":1.0,"pm10":1.0,"no2":0.0,"o3":0.0,"nh3":0.0,"co":0.0,"db":null,"flags":{},"last_time":"2026-07-11T22:19:14.055924Z"},{"name":"EZTTTGOTD0CC4E","mac":"08:B6:1F:90:CC:4E","geo3":"ezt","lat":43.2635,"lon":-3.0,"pm25":0.0,"pm10":0.0,"no2":169.4,"o3":0.0,"nh3":0.0,"co":0.0,"db":null,"flags":{},"last_time":"2026-07-11T12:08:42.785062Z"},{"name":"EZTXIAOS354B02","mac":"CC:BA:97:15:4B:02","geo3":"ezt","lat":43.2841,"lon":-2.9945,"pm25":0.0,"pm10":0.0,"no2":0.0,"o3":0.0,"nh3":0.0,"co":0.0,"db":73.39,"flags":{},"last_time":"2026-07-11T22:19:08.019569Z"},{"name":"EZTXIAOS355532","mac":"CC:BA:97:15:55:32","geo3":"ezt","lat":43.2429,"lon":-2.875,"pm25":0.0,"pm10":0.0,"no2":0.0,"o3":0.0,"nh3":0.0,"co":0.0,"db":67.12,"flags":{},"last_time":"2026-07-11T22:18:49.864645Z"},{"name":"EZTXIAOS361222","mac":"CC:BA:97:16:12:22","geo3":"ezt","lat":43.2841,"lon":-2.9945,"pm25":0.0,"pm10":0.0,"no2":0.0,"o3":58.9,"nh3":1629.9,"co":0.0,"db":0.0,"flags":{"nh3":true},"last_time":"2026-07-11T22:18:31.684482Z"},{"name":"U33TTGOTDA585E","mac":"24:6F:28:7A:58:5E","geo3":"u33","lat":52.5373,"lon":13.437,"pm25":0.0,"pm10":0.0,"no2":0.0,"o3":0.0,"nh3":0.0,"co":0.0,"db":null,"flags":{},"last_time":"2026-07-11T22:16:34.790304Z"}]}