{"generated_at":"2026-06-27T19:33:45.100487+00:00","count":8,"sensors":[{"name":"EZTESP32C3071A6","mac":"A8:46:74:40:71:A6","geo3":"ezt","lat":43.2614,"lon":-3.0048,"pm25":0.0,"pm10":0.0,"no2":0.0,"o3":0.0,"db":0.0,"last_time":"2026-06-25T19:33:45.096083Z"},{"name":"EZTTTGOT770076","mac":"E8:31:CD:C7:00:76","geo3":"ezt","lat":43.2291,"lon":-2.8764,"pm25":5.0,"pm10":5.0,"no2":0.0,"o3":0.0,"db":null,"last_time":"2026-06-25T19:33:45.096083Z"},{"name":"EZTTTGOT7D5CFE","mac":"34:86:5D:AD:5C:FE","geo3":"ezt","lat":43.2195,"lon":-2.8846,"pm25":5.0,"pm10":5.0,"no2":0.0,"o3":0.0,"db":null,"last_time":"2026-06-25T19:33:45.096083Z"},{"name":"EZTTTGOT7ECCA2","mac":"FC:B4:67:DE:CC:A2","geo3":"ezt","lat":43.2394,"lon":-2.8839,"pm25":6.0,"pm10":6.0,"no2":0.0,"o3":0.0,"db":null,"last_time":"2026-06-25T19:33:45.096083Z"},{"name":"EZTXIAOS355532","mac":"CC:BA:97:15:55:32","geo3":"ezt","lat":43.2429,"lon":-2.875,"pm25":0.0,"pm10":0.0,"no2":0.0,"o3":0.0,"db":65.54,"last_time":"2026-06-25T19:33:45.096083Z"},{"name":"EZTXIAOS361222","mac":"CC:BA:97:16:12:22","geo3":"ezt","lat":43.2614,"lon":-3.0048,"pm25":0.0,"pm10":0.0,"no2":0.0,"o3":98.2,"db":0.0,"last_time":"2026-06-25T19:33:45.096083Z"},{"name":"U33TTGOT7D7F66","mac":"34:85:18:8D:7F:66","geo3":"u33","lat":52.5284,"lon":13.4308,"pm25":6.0,"pm10":7.0,"no2":0.0,"o3":0.0,"db":0.0,"last_time":"2026-06-25T19:33:45.096083Z"},{"name":"U33TTGOTDA585E","mac":"24:6F:28:7A:58:5E","geo3":"u33","lat":52.5373,"lon":13.437,"pm25":3.0,"pm10":3.0,"no2":0.0,"o3":0.0,"db":null,"last_time":"2026-06-25T19:33:45.096083Z"}]}