{"generated_at":"2026-06-24T15:34:05.544582+00:00","count":6,"sensors":[{"name":"EZTESP32C306C66","mac":"A8:46:74:40:6C:66","geo3":"ezt","lat":43.2614,"lon":-3.0048,"pm25":3.0,"pm10":3.0,"no2":0.0,"o3":78.5,"db":64.83,"last_time":"2026-06-22T15:34:05.539096Z"},{"name":"EZTTTGOT770076","mac":"E8:31:CD:C7:00:76","geo3":"ezt","lat":43.2291,"lon":-2.8764,"pm25":0.0,"pm10":0.0,"no2":0.0,"o3":0.0,"db":null,"last_time":"2026-06-22T15:34:05.539096Z"},{"name":"EZTTTGOT7D5CFE","mac":"34:86:5D:AD:5C:FE","geo3":"ezt","lat":43.2195,"lon":-2.8846,"pm25":6.0,"pm10":7.0,"no2":0.0,"o3":0.0,"db":null,"last_time":"2026-06-22T15:34:05.539096Z"},{"name":"EZTTTGOT7ECCA2","mac":"FC:B4:67:DE:CC:A2","geo3":"ezt","lat":43.2394,"lon":-2.8839,"pm25":8.0,"pm10":8.0,"no2":0.0,"o3":0.0,"db":null,"last_time":"2026-06-22T15:34:05.539096Z"},{"name":"EZTXIAOS355532","mac":"CC:BA:97:15:55:32","geo3":"ezt","lat":43.2429,"lon":-2.875,"pm25":0.0,"pm10":0.0,"no2":0.0,"o3":0.0,"db":68.46,"last_time":"2026-06-22T15:34:05.539096Z"},{"name":"U33TTGOTDA585E","mac":"24:6F:28:7A:58:5E","geo3":"u33","lat":52.5373,"lon":13.437,"pm25":1.0,"pm10":1.0,"no2":0.0,"o3":0.0,"db":null,"last_time":"2026-06-22T15:34:05.539096Z"}]}