{"generated_at":"2026-06-23T19:34:07.689109+00:00","count":6,"sensors":[{"name":"EZTESP32C306C66","mac":"A8:46:74:40:6C:66","geo3":"ezt","lat":43.2614,"lon":-3.0048,"pm25":9.0,"pm10":9.0,"no2":0.0,"o3":98.2,"db":72.52,"last_time":"2026-06-21T19:34:07.679313Z"},{"name":"EZTTTGOT770076","mac":"E8:31:CD:C7:00:76","geo3":"ezt","lat":43.2291,"lon":-2.8764,"pm25":7.0,"pm10":9.0,"no2":0.0,"o3":0.0,"db":null,"last_time":"2026-06-21T19:34:07.679313Z"},{"name":"EZTTTGOT7D5CFE","mac":"34:86:5D:AD:5C:FE","geo3":"ezt","lat":43.2195,"lon":-2.8846,"pm25":14.0,"pm10":18.0,"no2":0.0,"o3":0.0,"db":null,"last_time":"2026-06-21T19:34:07.679313Z"},{"name":"EZTTTGOT7ECCA2","mac":"FC:B4:67:DE:CC:A2","geo3":"ezt","lat":43.2394,"lon":-2.8839,"pm25":8.0,"pm10":13.0,"no2":0.0,"o3":0.0,"db":null,"last_time":"2026-06-21T19:34:07.679313Z"},{"name":"EZTXIAOS355532","mac":"CC:BA:97:15:55:32","geo3":"ezt","lat":43.2429,"lon":-2.875,"pm25":0.0,"pm10":0.0,"no2":0.0,"o3":0.0,"db":76.16,"last_time":"2026-06-21T19:34:07.679313Z"},{"name":"U33TTGOTDA585E","mac":"24:6F:28:7A:58:5E","geo3":"u33","lat":52.5373,"lon":13.437,"pm25":2.0,"pm10":2.0,"no2":0.0,"o3":0.0,"db":null,"last_time":"2026-06-21T19:34:07.679313Z"}]}