{"generated_at":"2026-06-19T03:33:28.225167+00:00","count":7,"sensors":[{"name":"EZTTTGOT770076","mac":"E8:31:CD:C7:00:76","geo3":"ezt","lat":43.2291,"lon":-2.8764,"pm25":30.0,"pm10":30.0,"last_time":"2026-06-17T03:33:28.219513Z"},{"name":"EZTTTGOT7D5CFE","mac":"34:86:5D:AD:5C:FE","geo3":"ezt","lat":43.2195,"lon":-2.8846,"pm25":43.0,"pm10":44.0,"last_time":"2026-06-17T03:33:28.219513Z"},{"name":"EZTTTGOT7ECCA2","mac":"FC:B4:67:DE:CC:A2","geo3":"ezt","lat":43.2394,"lon":-2.8839,"pm25":40.0,"pm10":42.0,"last_time":"2026-06-17T03:33:28.219513Z"},{"name":"EZTTTGOTD08C9E","mac":"D4:D4:DA:E0:8C:9E","geo3":"ezt","lat":43.2374,"lon":-2.8709,"pm25":2.0,"pm10":2.0,"last_time":"2026-06-17T03:33:28.219513Z"},{"name":"EZTXIAOS355532","mac":"CC:BA:97:15:55:32","geo3":"ezt","lat":43.2429,"lon":-2.875,"pm25":0.0,"pm10":0.0,"last_time":"2026-06-17T03:33:28.219513Z"},{"name":"EZTXIAOS361222","mac":"CC:BA:97:16:12:22","geo3":"ezt","lat":43.2614,"lon":-3.0048,"pm25":32.0,"pm10":32.0,"last_time":"2026-06-17T03:33:28.219513Z"},{"name":"U33TTGOTDA585E","mac":"24:6F:28:7A:58:5E","geo3":"u33","lat":52.5373,"lon":13.437,"pm25":1.0,"pm10":2.0,"last_time":"2026-06-17T03:33:28.219513Z"}]}